{
  "type": "FeatureCollection",
  "features": [
    {
      "type": "Feature",
      "properties": {
        "id": "1",
        "name": "Grapevine Farms",
        "URL": "http://grapevinefarms.org/",
        "street": "601 Anson Ave",
        "city": "Abilene",
        "state": "TX",
        "zip": "79601",
        "email": "N/A",
        "phone": "(325)665-7818",
        "indoor/outdoor": "Outdoor",
        "produce type": "Vegetables, Fruits",
        "notes": ""
      },
      "geometry": {
        "type": "Point",
        "coordinates": [
          -99.725721,
          32.486768
        ]
      }
    },
    {
      "type": "Feature",
      "properties": {
        "id": "2",
        "name": "Wolf Creek Farm",
        "URL": "http://wolfcreekfarmsonline.com/",
        "street": "5301 County Road 1260",
        "city": "Lubbock",
        "state": "TX",
        "zip": "79407",
        "email": "N/A",
        "phone": "(806)853-7901",
        "indoor/outdoor": "Outdoor",
        "produce type": "Vegetables, Fruits",
        "notes": "Has its own store to sell produce"
      },
      "geometry": {
        "type": "Point",
        "coordinates": [
          -102.029858,
          33.545049
        ]
      }
    },
    {
      "type": "Feature",
      "properties": {
        "id": "3",
        "name": "Wye Mountain Flowers & Berries",
        "URL": "https://www.wyemountain.net/",
        "street": "20309 Hwy 113",
        "city": "Roland",
        "state": "Ar",
        "zip": "72135",
        "email": "farm@wyemountain.net",
        "phone": "(501)330-1906",
        "indoor/outdoor": "Outdoor",
        "produce type": "Flowers, Berries",
        "notes": "25 miles from Little Rock"
      },
      "geometry": {
        "type": "Point",
        "coordinates": [
          -92.647495,
          34.926477
        ]
      }
    },
    {
      "type": "Feature",
      "properties": {
        "id": "4",
        "name": "Ten Acre Organics",
        "URL": "http://www.tenacreorganics.com/",
        "street": "5015 Maufrais Ln",
        "city": "Austin",
        "state": "TX",
        "zip": "78744",
        "email": "info@tenacreorganics.com",
        "phone": "N/A",
        "indoor/outdoor": "Indoor",
        "produce type": "Vegetables",
        "notes": "Might not be in business anymore"
      },
      "geometry": {
        "type": "Point",
        "coordinates": [
          -97.736973,
          30.199026
        ]
      }
    },
    {
      "type": "Feature",
      "properties": {
        "id": "5",
        "name": "47th Avenue Farm",
        "URL": "http://www.47thavefarm.com/",
        "street": "6632 SE 47th Ave",
        "city": "Portland",
        "state": "OR",
        "zip": "97114",
        "email": "N/A",
        "phone": "N/A",
        "indoor/outdoor": "Outdoor",
        "produce type": "Vegetables,Herbs",
        "notes": "CSA model, a few other locations"
      },
      "geometry": {
        "type": "Point",
        "coordinates": [
          -122.614219,
          45.474776
        ]
      }
    },
{
  "type": "Feature",
  "properties": {
    "id": "6",
    "name": "Able Farms, Inc.",
    "URL": "http://www.ablefarms.org/",
    "street": "N/A",
    "city": "Portland",
    "state": "OR",
    "zip": "N/A",
    "email": "ablefarmspdx@gmail.com",
    "phone": "(503)828-7458",
    "indoor/outdoor": "Outdoor",
    "produce type": "Vegetables, Fruits,Meats,Eggs",
    "notes": "CSA, organic, GMO-free,Affinity for Japan"
  },
  "geometry": {
    "type": "Point",
    "coordinates": [
      0,
      0
 ]
      }
    },
    {
  "type": "Feature",
  "properties": {
    "id": "7",
    "name": "Love Farm Organics",
    "URL": "https://www.lovefarmorganics.com/",
    "street": "46125 NW Hillside Road",
    "city": "Forest Grove",
    "state": "OR",
    "zip": "97116",
    "email": "lovefarmorganics@gmail.com",
    "phone": "(503) 515-9939",
    "indoor/outdoor": "Outdoor",
    "produce type": "Vegetables,Fruits,Herbs",
    "notes": "Family-owned,Organic,CSA"
  },
  "geometry": {
    "type": "Point",
    "coordinates": [
      -123.152891,
      45.568350
    ]
  }
},
{
  "type": "Feature",
  "properties": {
    "id": "8",
    "name": "South Barlow Berries",
    "URL": "www.southbarlowberries.com/",
    "street": "29190 S Barlow Rd",
    "city": "Canby",
    "state": "OR",
    "zip": "97013",
    "email": "N/A",
    "phone": "(503) 266-3193",
    "indoor/outdoor": "Outdoor",
    "produce type": "Berries(Strawberries,Blueberries,Rasperries,etc.",
    "notes": "Family-owned,U-pick farm"
  },
  "geometry": {
    "type": "Point",
    "coordinates": [
      -122.722133,
      45.186721
    ]
  }
},
{
  "type": "Feature",
  "properties": {
    "id": "9",
    "name": "Rosse Posse Acres, Inc.",
    "URL": "http://www.rosseposseacres.com/",
    "street": "32690 S. Mathias Rd",
    "city": "Molalla",
    "state": "OR",
    "zip": "97038",
    "email": "alan@rosseposseacres.com",
    "phone": "(503)829-7107",
    "indoor/outdoor": "Outdoor",
    "produce type": "Elk meat",
    "notes": "Also a petting zoo,52-acre"
  },
  "geometry": {
    "type": "Point",
    "coordinates": [
      -122.569259,
      45.133446
    ]
  }
},
{
  "type": "Feature",
  "properties": {
    "id": "10",
    "name": "Christopher Bridge Cellars",
    "URL": "http://christopherbridgewines.com/",
    "street": "12770 S. Casto Road",
    "city": "Oregon City",
    "state": "OR",
    "zip": "97045-9550",
    "email": "info@christopherbridgewines.com",
    "phone": "(503)263-6267",
    "indoor/outdoor": "Outdoor",
    "produce type": "Wine, Mainly Pinot Noir & Pinot Gris",
    "notes": "80 acre, Owners names-Chris and Susanne Carlberg"
  },
  "geometry": {
    "type": "Point",
    "coordinates": [
      -122.605474,
      45.263644
    ]
  }
},
{
  "type": "Feature",
  "properties": {
    "id": "11",
    "name": "Marquam Meadows Fruit Company",
    "URL": "http://marquammeadowsfruit.com/",
    "street": "9924 Marquam Cir",
    "city": "Marquam Circle Molalla",
    "state": "OR",
    "zip": "97038",
    "email": "apples@marquammeadowsfruit.com",
    "phone": "(503) 829-5047",
    "indoor/outdoor": "Outdoor",
    "produce type": "Apple Orchard",
    "notes": "U-pick, Don't sell commercially,Family Farm"
  },
  "geometry": {
    "type": "Point",
    "coordinates": [
      -122.659101,
      45.083978
    ]
  }
},
{
  "type": "Feature",
  "properties": {
    "id": "12",
    "name": "Fir Point Farms",
    "URL": "http://firpointfarms.com",
    "street": "14601 Arndt Road",
    "city": "Aurora",
    "state": "OR",
    "zip": "97002",
    "email": "store@firpointfarms.com",
    "phone": "(503) 678-2455",
    "indoor/outdoor": "Outdoor",
    "produce type": "Pumpkin Patch",
    "notes": "35 acre, Pumpkin Patch, Sells other produce too"
  },
  "geometry": {
    "type": "Point",
    "coordinates": [
      -122.758914,
      45.259942
   ]
  }
},
{
  "type": "Feature",
  "properties": {
    "id": "13",
    "name": "Simpson Street Farm",
    "URL": "https://www.facebook.com/simpsonstreetfarm/",
    "street": "4609 NE Simpson St",
    "city": "Portland",
    "state": "OR",
    "zip": "97218",
    "email": "simpsonstreetfarm@gmail.com",
    "phone": "(503)459-7882",
    "indoor/outdoor": "Outdoor",
    "produce type": "Vegetables, Chickens,Eggs",
    "notes": "0.9 acres"
  },
  "geometry": {
    "type": "Point",
    "coordinates": [
      -122.615237,
      45.565514
    ]
  }
},
{
  "type": "Feature",
  "properties": {
    "id": "14",
    "name": "Lee Farms",
    "URL": "https://www.leefarmsoregon.com",
    "street": "21975 SW 65th Ave",
    "city": "Tualatin",
    "state": "OR",
    "zip": "97062",
    "email": "info@leefarmsoregon.com",
    "phone": "(503) 638-1869",
    "indoor/outdoor": "Outdoor",
    "produce type": "Pumpkin Patch, Christmas Trees,Berries",
    "notes": "Family-Run"
  },
  "geometry": {
    "type": "Point",
    "coordinates": [
      -122.744398,
      45.361756
       ]
  }
},
{
  "type": "Feature",
  "properties": {
    "id": "15",
    "name": "Kruger's Farm",
    "URL": "http://krugersfarm.com/",
    "street": "17100 NW Sauvie Island Rd",
    "city": "Portland",
    "state": "OR",
    "zip": "97231",
    "email": "info@krugersfarm.com",
    "phone": "(503)621-3489",
    "indoor/outdoor": "",
    "produce type": "Berries, Pumpkins,Pickling Cucumber",
    "notes": "150 acre, U-pick Berries, Pumpkin fields, Corn Maze"
  },
  "geometry": {
    "type": "Point",
    "coordinates": [
      -122.823642,
      45.647753
    ]
  }
},
{
  "type": "Feature",
  "properties": {
    "id": "16",
    "name": "Bella Organic",
    "URL": "http://bellaorganic.com/",
    "street": "16205 NW Gillihan Rd",
    "city": "Portland",
    "state": "OR",
    "zip": "97231",
    "email": "johnny@bellaorganic.com",
    "phone": "(503)621-9545",
    "indoor/outdoor": "Outdoor",
    "produce type": "Vegetables,Fruits,Pumpkins,Grapes,Herbs,Nersery Stock",
    "notes": "100 acre,Organic,U-Pick"
  },
  "geometry": {
    "type": "Point",
    "coordinates": [
      -122.794189,
      45.639397
       ]
  }
},
{
  "type": "Feature",
  "properties": {
    "id": "17",
    "name": "Windslow Food Forest",
    "URL": "http://winslowfoodforest.com/",
    "street": "3499 SE Sherrett st",
    "city": "Portland",
    "state": "OR",
    "zip": "97222",
    "email": "winslowfoodforest@gmail.com",
    "phone": "(616) 633-8345",
    "indoor/outdoor": "Outdoor",
    "produce type": "heirloom vegetables, culinary herbs, berries, orchard fruits, & edible flowers",
    "notes": "Organic, Permaculture"
  },
  "geometry": {
    "type": "Point",
    "coordinates": [
      -122.627298,
      45.461438
    ]
  }
},
{
  "type": "Feature",
  "properties": {
    "id": "18",
    "name": "Birkeland Farm",
    "URL": "http://www.birkelandfarm.com",
    "street": "22280 S Beavercreek Rd",
    "city": "Beavercreek",
    "state": "OR",
    "zip": "97004",
    "email": "N/A",
    "phone": "503.732.0265",
    "indoor/outdoor": "",
    "produce type": "Beef, Chicken, Lamb",
    "notes": "70 acre, Cattle Ranch"
  },
  "geometry": {
    "type": "Point",
    "coordinates": [
      -122.526922,
      45.287877
       ]
  }
},
{
  "type": "Feature",
  "properties": {
    "id": "19",
    "name": "Seavey Loop Orchard",
    "URL": "slofarm.wordpress.com",
    "street": "N/A",
    "city": "Eugene",
    "state": "OR",
    "zip": "N/A",
    "email": "slo.farm@gmail.com",
    "phone": "N/A",
    "indoor/outdoor": "Outdoor",
    "produce type": "Vegetables",
    "notes": "13 acres"
  },
  "geometry": {
    "type": "Point",
    "coordinates": [
      0,
      0
    ]
  }
},
{
  "type": "Feature",
  "properties": {
    "id": "20",
    "name": "Agrarian Ales,LLC",
    "URL": "https://www.agales.com/",
    "street": "31115 Crossroads Ln W",
    "city": "Eugene",
    "state": "OR",
    "zip": "97408",
    "email": "agrarianales@gmail.com",
    "phone": "541-632-3803",
    "indoor/outdoor": "Outdoor",
    "produce type": "hops",
    "notes": "25 acre, Beer"
  },
  "geometry": {
    "type": "Point",
    "coordinates": [
      -123.127739,
      44.189074
       ]
  }
},
{
  "type": "Feature",
  "properties": {
    "id": "21",
    "name": "The Eugene Backyard Farmer",
    "URL": "http://eugenebackyardfarmer.com/",
    "street": "501 Washington St",
    "city": "Eugene",
    "state": "OR",
    "zip": "97401",
    "email": "info@eugenebackyardfarmer.com",
    "phone": "541-485-3276",
    "indoor/outdoor": "Outdoor",
    "produce type": "Turkeys, Chickens, Vegetable seeds",
    "notes": "Backyard Farm"
  },
  "geometry": {
    "type": "Point",
    "coordinates": [
      -123.099825,
      44.054032
    ]
  }
},
{
  "type": "Feature",
  "properties": {
    "id": "",
    "name": "",
    "URL": "",
    "street": "",
    "city": "",
    "state": "",
    "zip": "",
    "email": "",
    "phone": "",
    "indoor/outdoor": "",
    "produce type": "",
    "notes": ""
  },
  "geometry": {
    "type": "Point",
    "coordinates": [
      0,
      0
       ]
  }
},
{
  "type": "Feature",
  "properties": {
    "id": "",
    "name": "",
    "URL": "",
    "street": "",
    "city": "",
    "state": "",
    "zip": "",
    "email": "",
    "phone": "",
    "indoor/outdoor": "",
    "produce type": "",
    "notes": ""
  },
  "geometry": {
    "type": "Point",
    "coordinates": [
      0,
      0
    ]
  }
},
{
  "type": "Feature",
  "properties": {
    "id": "",
    "name": "",
    "URL": "",
    "street": "",
    "city": "",
    "state": "",
    "zip": "",
    "email": "",
    "phone": "",
    "indoor/outdoor": "",
    "produce type": "",
    "notes": ""
  },
  "geometry": {
    "type": "Point",
    "coordinates": [
      0,
      0
       ]
  }
},
{
  "type": "Feature",
  "properties": {
    "id": "",
    "name": "",
    "URL": "",
    "street": "",
    "city": "",
    "state": "",
    "zip": "",
    "email": "",
    "phone": "",
    "indoor/outdoor": "",
    "produce type": "",
    "notes": ""
  },
  "geometry": {
    "type": "Point",
    "coordinates": [
      0,
      0
    ]
  }
},
{
  "type": "Feature",
  "properties": {
    "id": "",
    "name": "",
    "URL": "",
    "street": "",
    "city": "",
    "state": "",
    "zip": "",
    "email": "",
    "phone": "",
    "indoor/outdoor": "",
    "produce type": "",
    "notes": ""
  },
  "geometry": {
    "type": "Point",
    "coordinates": [
      0,
      0
  ]
  }
}
  ]
}
